City,Lat,Lng,Max Temp,Humidity,Cloudiness,Wind Speed,Country,Date
Carnarvon,-24.8667,113.6333,72.36,48,0,19.69,AU,1666752973
Tuktoyaktuk,69.4541,-133.0374,12.2,92,75,13.8,CA,1666752973
Bilma,18.6853,12.9164,68.14,16,0,6.24,NE,1666752974
Hobart,-42.8794,147.3294,59.27,98,75,14.97,AU,1666752975
Jalpan,21.2333,-99.4833,66.0,66,91,2.35,MX,1666752975
Albany,42.6001,-73.9662,65.95,91,38,3.0,US,1666752726
Chui,-33.6971,-53.4616,59.45,89,82,13.0,UY,1666752976
Isangel,-19.55,169.2667,77.11,88,75,5.75,VU,1666752976
Qaanaaq,77.484,-69.3632,17.73,94,100,11.45,GL,1666752977
Nikolskoye,59.7035,30.7861,37.29,96,100,6.38,RU,1666752978
Dovolnoye,54.4958,79.6671,32.09,52,100,8.46,RU,1666752978
Rikitea,-23.1203,-134.9692,72.86,81,63,12.37,PF,1666752978
Vavozh,56.7751,51.931,31.17,76,98,8.32,RU,1666752979
Puerto Escondido,15.85,-97.0667,79.84,86,52,1.9,MX,1666752980
Ushuaia,-54.8,-68.3,47.86,49,75,16.11,AR,1666752967
Hilo,19.7297,-155.09,80.11,81,27,4.0,US,1666752933
Norman Wells,65.282,-126.8329,15.84,92,75,3.44,CA,1666752980
Bayanday,53.0661,105.5139,33.48,41,7,4.14,RU,1666752981
Jamestown,42.097,-79.2353,62.71,71,0,5.01,US,1666752727
Mandalgovi,45.7625,106.2708,27.41,50,3,6.91,MN,1666752981
Sinnamary,5.3833,-52.95,78.64,82,49,6.38,GF,1666752983
Cape Town,-33.9258,18.4232,61.92,76,0,13.0,ZA,1666752882
Ribeira Grande,38.5167,-28.7,61.77,76,67,5.01,PT,1666752983
Hermanus,-34.4187,19.2345,58.8,81,100,12.73,ZA,1666752984
Saskylakh,71.9167,114.0833,-6.3,100,39,3.51,RU,1666752985
Yellowknife,62.456,-114.3525,21.72,86,100,9.22,CA,1666752985
Russellville,35.2784,-93.1338,47.14,65,0,4.68,US,1666752986
Kieta,-6.2167,155.6333,83.28,77,22,2.82,PG,1666752986
Poum,-20.2333,164.0167,76.93,77,2,6.33,NC,1666752986
Cockburn Town,21.4612,-71.1419,78.85,74,100,4.7,TC,1666752987
Mataura,-46.1927,168.8643,51.48,97,100,4.0,NZ,1666752987
New Norfolk,-42.7826,147.0587,58.91,81,100,1.99,AU,1666752988
Half Moon Bay,37.4636,-122.4286,59.41,73,0,10.36,US,1666752988
Kyren,51.6828,102.1408,35.06,40,0,2.13,RU,1666752989
East London,-33.0153,27.9116,63.72,70,100,8.1,ZA,1666752989
Dingle,10.9995,122.6711,83.98,79,100,13.06,PH,1666752990
Ketchikan,55.3422,-131.6461,41.5,83,89,1.57,US,1666752990
Waipawa,-41.4122,175.5153,60.73,58,79,15.23,NZ,1666752990
Vaini,-21.2,-175.2,73.56,73,75,5.75,TO,1666752991
Amudālavalasa,18.4167,83.9,78.17,67,6,4.54,IN,1666752991
Saint-Pierre,-21.3393,55.4781,73.9,64,0,5.75,RE,1666752992
Oddur,4.1213,43.8894,71.33,83,94,7.45,SO,1666752992
Saint Paul Harbor,57.79,-152.4072,44.87,90,100,6.87,US,1666752993
Porkhov,57.765,29.5561,47.7,98,100,6.44,RU,1666752993
Codrington,-38.2667,141.9667,60.98,89,100,11.36,AU,1666752994
Chokurdakh,70.6333,147.9167,9.21,95,100,2.62,RU,1666752994
Andújar,38.0392,-4.0508,68.94,58,100,1.07,ES,1666752995
Sitka,57.0531,-135.33,42.69,75,40,6.91,US,1666752995
Puerto Nariño,-3.7703,-70.3831,73.6,94,100,2.21,CO,1666752995
Bethel,41.3712,-73.414,66.29,89,100,0.0,US,1666752996
Najrān,17.4924,44.1277,59.65,27,0,0.38,SA,1666752997
Busselton,-33.65,115.3333,63.21,55,74,7.94,AU,1666752997
Chumikan,54.7183,135.315,34.56,98,100,7.58,RU,1666752998
Bluff,-46.6,168.3333,51.8,90,100,7.18,NZ,1666752998
Jacareacanga,-6.2222,-57.7528,72.73,99,99,1.68,BR,1666752999
Iqaluit,63.7506,-68.5145,28.13,92,100,20.71,CA,1666752999
Caramay,10.1815,119.236,84.99,70,92,4.61,PH,1666752999
Hobyo,5.3505,48.5268,78.67,84,39,10.07,SO,1666753000
Saldanha,-33.0117,17.9442,53.65,87,16,8.41,ZA,1666753000
Mimongo,-1.6195,11.6068,69.84,99,100,2.08,GA,1666753001
Karlskrona,56.1616,15.5866,50.45,87,62,13.91,SE,1666753001
La Ronge,55.1001,-105.2842,28.65,74,75,1.14,CA,1666753002
San Cristobal,7.7669,-72.225,66.38,98,100,2.19,VE,1666753002
Quatre Cocos,-20.2078,57.7625,74.08,79,12,13.06,MU,1666753003
Tautira,-17.7333,-149.15,78.53,81,94,22.57,PF,1666753003
St. George's,12.0564,-61.7485,82.08,89,40,14.97,GD,1666753004
Port Lincoln,-34.7333,135.8667,61.7,70,93,15.39,AU,1666752737
Oussouye,12.485,-16.5469,78.35,81,66,5.79,SN,1666753004
Saint-Philippe,-21.3585,55.7679,71.19,73,21,12.46,RE,1666753005
Butaritari,3.0707,172.7902,82.33,73,65,5.26,KI,1666753005
George Town,5.4112,100.3354,85.89,83,20,4.61,MY,1666753006
Torbay,47.6666,-52.7314,56.5,89,0,11.5,CA,1666752720
Zhangye,38.9342,100.4517,54.21,32,0,5.91,CN,1666753006
Matagami,49.7502,-77.6328,59.11,82,100,13.8,CA,1666753007
Marsh Harbour,26.5412,-77.0636,78.04,66,4,8.59,BS,1666753007
Port Alfred,-33.5906,26.891,59.18,94,100,4.0,ZA,1666752853
Dikson,73.5069,80.5464,24.58,73,100,1.57,RU,1666753008
Viedma,-40.8135,-62.9967,59.23,88,100,5.28,AR,1666753008
Zihuatanejo,17.6333,-101.55,80.46,86,79,5.64,MX,1666752866
Laas,46.6166,10.7002,48.69,89,100,1.68,IT,1666753009
Vila Velha,-20.3297,-40.2925,71.55,94,75,2.3,BR,1666752779
Nanortalik,60.1432,-45.2371,33.37,74,7,0.94,GL,1666753010
Livenka,50.4491,38.2959,50.0,93,100,10.09,RU,1666753010
Sabang,5.8933,95.3214,81.7,76,99,9.24,ID,1666753011
Westport,41.1415,-73.3579,67.77,92,100,8.05,US,1666752978
Punta Arenas,-53.15,-70.9167,48.31,61,100,9.22,CL,1666752971
Suntar,62.1444,117.6319,30.79,80,100,8.08,RU,1666753012
Kapaa,22.0752,-159.319,85.98,83,52,10.0,US,1666753012
Khatanga,71.9667,102.5,-3.01,99,96,2.73,RU,1666753012
Lavrentiya,65.5833,-171.0,26.8,78,51,12.59,RU,1666753013
Katsuura,35.1333,140.3,62.11,61,81,23.4,JP,1666753013
Lüderitz,-26.6481,15.1594,60.28,69,70,12.41,NA,1666753014
Atuona,-9.8,-139.0333,77.36,72,5,17.2,PF,1666753014
Arraial do Cabo,-22.9661,-42.0278,70.54,79,1,7.99,BR,1666753015
Bredasdorp,-34.5322,20.0403,60.66,75,100,9.98,ZA,1666753015
Haicheng,40.8516,122.7475,64.35,54,93,15.14,CN,1666753016
Kaitangata,-46.2817,169.8464,49.48,93,100,6.58,NZ,1666753016
Bubaque,11.2833,-15.8333,83.26,75,9,4.65,GW,1666753017
Aykino,62.2248,49.9922,26.42,97,29,3.62,RU,1666753017
Puerto Ayora,-0.7393,-90.3518,65.55,97,65,5.01,EC,1666753018
Clifton,40.8584,-74.1638,67.21,94,100,5.75,US,1666753019
Port Elizabeth,-33.918,25.5701,62.89,82,100,9.22,ZA,1666753019
Pangnirtung,66.1451,-65.7125,22.06,77,100,9.98,CA,1666753019
Belmonte,-15.8631,-38.8828,73.29,88,69,4.85,BR,1666752735
Lebu,-37.6167,-73.65,54.1,97,100,8.66,CL,1666753020
Kahului,20.8947,-156.47,80.96,82,4,15.01,US,1666753020
Aklavik,68.2191,-135.0107,5.4,98,86,6.71,CA,1666753021
Provideniya,64.3833,-173.3,28.51,59,75,17.9,RU,1666752975
Paraíso,9.8383,-83.8656,67.42,97,86,0.94,CR,1666753021
Marawi,7.9986,124.2928,73.81,89,100,4.09,PH,1666753022
Tigil',57.8,158.6667,34.36,98,100,22.84,RU,1666753022
Avarua,-21.2078,-159.775,77.05,57,100,6.91,CK,1666753023
Malakal,9.5334,31.6605,70.5,75,74,5.88,SS,1666753023
Qaqortoq,60.7167,-46.0333,27.34,72,35,5.39,GL,1666753024
Brae,60.3964,-1.353,52.03,89,100,12.71,GB,1666753025
Pisco,-13.7,-76.2167,59.05,88,0,16.11,PE,1666753025
Wanaka,-44.7,169.15,53.73,81,100,5.88,NZ,1666753026
Hasaki,35.7333,140.8333,64.8,58,88,29.17,JP,1666753026
Huarmey,-10.0681,-78.1522,62.1,86,18,10.22,PE,1666752734
Batemans Bay,-35.7167,150.1833,70.11,68,64,2.48,AU,1666753027
Tobermory,45.2501,-81.6665,56.84,72,100,16.58,CA,1666753027
Bissau,11.8636,-15.5977,78.8,75,21,3.58,GW,1666753028
Sobolevo,54.4299,31.8996,44.08,96,100,6.15,RU,1666753028
Carutapera,-1.195,-46.02,79.11,76,85,8.5,BR,1666753028
Granada,37.25,-3.25,66.29,28,100,4.5,ES,1666753029
Lata,40.1629,-8.3327,61.07,95,3,4.43,PT,1666753029
Saint George,37.1041,-113.5841,57.94,39,13,1.74,US,1666753030
Río Cuarto,-33.1307,-64.3499,63.68,94,75,26.46,AR,1666753030
Whitianga,-36.8333,175.7,60.37,66,96,6.22,NZ,1666753031
Torbat-e Jām,35.244,60.6225,56.1,74,99,6.02,IR,1666753032
Riverton,40.5219,-111.9391,45.25,73,0,7.0,US,1666752917
Shebalino,51.2917,85.6772,37.42,25,12,4.5,RU,1666753032
Taltal,-25.4,-70.4833,58.71,78,0,5.5,CL,1666753033
Lompoc,34.6391,-120.4579,58.01,80,9,3.0,US,1666753034
Kavaratti,10.5669,72.642,82.47,60,25,9.4,IN,1666753034
San Miguel de Tucumán,-26.8241,-65.2226,80.6,47,0,3.44,AR,1666753035
Tasiilaq,65.6145,-37.6368,27.59,92,100,4.79,GL,1666753035
North Bend,43.4065,-124.2243,53.92,93,100,18.41,US,1666752781
Lunglei,22.8833,92.7333,72.19,70,22,1.66,IN,1666753036
Krasnoborsk,61.5598,45.934,28.54,95,12,3.62,RU,1666753036
Tarakan,3.3,117.6333,83.7,79,75,4.61,ID,1666753037
Tiksi,71.6872,128.8694,17.65,87,100,15.79,RU,1666753037
Mahébourg,-20.4081,57.7,74.25,83,75,9.22,MU,1666753037
Aksarka,66.5606,67.7975,19.72,87,96,6.17,RU,1666753038
Ostrovnoy,68.0531,39.5131,31.17,82,100,18.97,RU,1666753038
Tuy Hoa,13.0833,109.3,81.84,80,99,6.8,VN,1666753039
Makakilo City,21.3469,-158.0858,80.35,74,100,9.22,US,1666753039
Hirado,33.3597,129.5531,69.39,44,12,10.98,JP,1666753040
Bud,39.447,-86.1758,62.67,96,100,14.94,US,1666753040
Ozernovskiy,51.5,156.5167,41.7,66,70,13.51,RU,1666753041
Olafsvik,64.8945,-23.7142,42.39,81,100,19.57,IS,1666753042
Lagoa,39.05,-27.9833,62.46,68,51,22.44,PT,1666753042
Nentón,15.8,-91.75,68.04,92,16,4.43,GT,1666753042
Bengkulu,-3.8004,102.2655,75.99,91,100,1.54,ID,1666753043
Castro,-24.7911,-50.0119,59.56,89,63,10.04,BR,1666753043
Changji,44.0167,87.3167,43.59,65,0,2.24,CN,1666753044
Fuerte Olimpo,-21.0415,-57.8738,76.62,47,2,6.15,PY,1666753044
Pierre,44.3683,-100.351,47.28,76,0,5.75,US,1666752765
Coyhaique,-45.5752,-72.0662,48.15,87,0,6.91,CL,1666753045
Knyaze-Volkonskoye,48.4642,135.4567,50.34,49,84,9.86,RU,1666753045
Thinadhoo,0.5333,72.9333,82.42,76,52,13.38,MV,1666753046
Ikungi,-5.1333,34.7667,62.19,79,96,11.45,TZ,1666753046
Kupang,-10.1667,123.5833,91.98,62,20,8.05,ID,1666753047
Waupun,43.6333,-88.7296,42.57,74,100,10.18,US,1666753047
Tacna,-18.0056,-70.2483,56.3,82,100,8.05,PE,1666753048
San Quintín,30.4833,-115.95,66.16,70,0,11.54,MX,1666753048
Malbork,54.0359,19.0266,51.85,94,3,8.59,PL,1666753049
Ahipara,-35.1667,173.1667,65.48,56,63,8.63,NZ,1666753049
Mumford,5.2618,-0.759,77.7,85,100,3.51,GH,1666753049
Leh,34.1667,77.5833,32.32,49,0,1.95,IN,1666753050
Rakai,-0.72,31.4839,63.19,74,100,4.61,UG,1666753050
Capão da Canoa,-29.7456,-50.0097,64.31,86,6,15.79,BR,1666753051
Flin Flon,54.7682,-101.865,22.51,97,100,3.94,CA,1666752973
Rincon,32.296,-81.2354,68.86,96,100,5.66,US,1666753052
Garissa,-0.4536,39.6401,75.58,84,88,8.39,KE,1666753053
Upernavik,72.7868,-56.1549,23.45,95,100,4.25,GL,1666753053
Tres Arroyos,-38.3739,-60.2798,58.84,93,100,5.32,AR,1666753053
Mar del Plata,-38.0023,-57.5575,61.95,85,0,13.0,AR,1666753054
Puerto Palomas,31.7667,-107.6167,58.62,23,0,3.36,MX,1666753054
Todos Santos Cuchumatán,15.5167,-91.6167,53.62,94,67,2.08,GT,1666753055
Severo-Kuril'sk,50.6789,156.125,41.68,63,2,9.75,RU,1666753056
Vestmannaeyjar,63.4427,-20.2734,45.19,85,100,29.91,IS,1666753056
Esperance,-33.8667,121.9,62.17,69,39,12.03,AU,1666753056
Paamiut,61.994,-49.6678,31.21,55,100,3.42,GL,1666753057
Longyearbyen,78.2186,15.6401,12.04,79,20,10.36,SJ,1666753057
Río Gallegos,-51.6226,-69.2181,46.45,66,0,23.02,AR,1666753058
Corinth,37.9407,22.9573,66.83,55,0,2.44,GR,1666752874
Vardø,70.3705,31.1107,31.98,86,100,2.3,NO,1666753058
Luan,46.3592,6.9759,52.86,85,92,4.0,CH,1666753059
Tairua,-37.0167,175.85,60.48,67,96,8.52,NZ,1666753059
Santa Isabel Rio Negro,-0.4139,-65.0192,78.71,79,100,2.37,BR,1666753060
Bandarbeyla,9.4942,50.8122,76.64,79,82,5.48,SO,1666753060
Tuatapere,-46.1333,167.6833,50.49,96,100,7.72,NZ,1666753061
Thompson,55.7435,-97.8558,24.96,93,100,10.36,CA,1666753062
Champerico,14.3,-91.9167,80.49,78,100,7.61,GT,1666753062
Pevek,69.7008,170.3133,0.52,92,46,5.08,RU,1666753063
Ussel,45.55,2.3167,49.08,96,7,2.21,FR,1666753063
Mocuba,-16.8392,36.9856,72.23,69,32,0.6,MZ,1666753064
Clyde River,70.4692,-68.5914,7.03,72,0,2.3,CA,1666753040
Evanston,42.0411,-87.6901,49.46,93,100,5.01,US,1666752932
Husavik,66.0449,-17.3389,36.7,97,100,6.85,IS,1666753065
Constantine,36.365,6.6147,53.01,43,0,3.44,DZ,1666753065
Sergeevka,53.88,67.4158,31.89,82,100,3.98,KZ,1666753066
College,64.8569,-147.8028,23.2,77,100,4.0,US,1666753006
Ankara,39.9199,32.8543,48.2,66,2,0.45,TR,1666752906
Abilene,32.4487,-99.7331,59.94,55,0,0.0,US,1666752779
Kruisfontein,-34.0033,24.7314,57.88,85,100,8.14,ZA,1666753067
San Patricio,28.017,-97.5169,71.83,34,5,5.88,US,1666753067
Shelburne,44.0787,-80.2041,58.6,89,100,8.25,CA,1666752810
Charters Towers,-20.1,146.2667,92.35,35,87,8.61,AU,1666753068
Roald,62.5833,6.1333,54.75,93,100,12.66,NO,1666753068
Kibala,9.1104,18.3463,67.95,100,0,1.14,TD,1666753069
Bereket,39.2446,55.5154,53.87,70,3,5.08,TM,1666753069
Skellefteå,64.7507,20.9528,36.0,100,100,1.14,SE,1666753070
Bānkura,23.25,87.0667,78.89,57,0,3.29,IN,1666753070
Puri,19.8,85.85,79.32,63,13,6.82,IN,1666752897
Patāmundai,20.5667,86.5667,79.39,65,3,5.46,IN,1666753071
Narsaq,60.9167,-46.05,22.32,70,17,6.62,GL,1666753071
Tipuani,-15.5648,-68.0185,73.58,84,86,1.88,BO,1666753072
Sept-Îles,50.2001,-66.3821,49.05,97,100,3.44,CA,1666753072
Ancud,-41.8697,-73.8203,51.66,94,98,12.57,CL,1666753072
Port-Cartier,50.0334,-66.8654,48.74,87,100,2.77,CA,1666753073
Zhangaözen,43.3,52.8,49.6,62,100,7.38,KZ,1666753073
Shimoda,34.6667,138.95,64.76,49,0,13.04,JP,1666753074
Xining,36.6167,101.7667,50.63,71,77,1.95,CN,1666753074
Artigas,-30.4,-56.4667,63.55,73,39,11.86,UY,1666753075
Alice Springs,-23.7,133.8833,87.35,25,4,8.05,AU,1666753038
Meulaboh,4.1363,96.1285,79.75,82,100,3.74,ID,1666753075
Thunder Bay,48.4001,-89.3168,37.38,75,75,6.91,CA,1666753076
Merrill,45.1805,-89.6835,41.18,78,100,4.61,US,1666753076
Esim,4.8699,-2.2405,76.86,88,88,2.98,GH,1666753076
Hambantota,6.1241,81.1185,79.14,94,40,0.0,LK,1666753077
Bandar,2.05,99.75,74.86,96,100,0.98,ID,1666753078
Klaksvík,62.2266,-6.589,45.52,93,73,9.37,FO,1666753078
Saint Anthony,45.0205,-93.218,43.72,79,0,0.0,US,1666753078
Ambon City,-3.6954,128.1814,91.54,66,40,5.75,ID,1666753079
Alofi,-19.0595,-169.9187,76.89,61,75,11.5,NU,1666753079
Tshikapa,-6.4167,20.8,69.82,97,99,3.13,CD,1666752911
Neiafu,-18.65,-173.9833,75.88,73,75,6.91,TO,1666753080
Joshīmath,30.5667,79.5667,60.71,19,0,0.89,IN,1666753080
Hong Kong,22.2855,114.1577,80.65,64,82,8.01,HK,1666752910
Grants,35.1473,-107.8514,35.83,75,0,0.0,US,1666753081
Les Cayes,18.2,-73.75,76.69,78,6,1.77,HT,1666753082
Rantauprapat,2.1,99.8333,75.94,95,100,1.3,ID,1666753083
Barrow,71.2906,-156.7887,18.0,95,80,12.3,US,1666753083
Kalāleh,37.3807,55.4916,53.2,87,0,0.0,IR,1666753084
Anadyr,64.75,177.4833,9.1,92,20,8.95,RU,1666753084
Uzhhorod,48.6167,22.3,50.49,92,9,2.62,UA,1666753086
Turukhansk,65.8167,87.9833,31.1,93,100,17.56,RU,1666753087
Rome,43.2128,-75.4557,68.38,88,74,3.0,US,1666753087
Yeppoon,-23.1333,150.7333,91.18,39,65,4.81,AU,1666753087
Vila,42.0304,-8.1588,54.48,94,100,6.98,PT,1666753088
Mil'kovo,54.7167,158.6167,40.24,44,51,12.95,RU,1666753089
Vao,-22.6667,167.4833,71.29,81,100,16.93,NC,1666753089
Salalah,17.0151,54.0924,75.45,59,0,3.33,OM,1666753089
Fortuna,40.5982,-124.1573,50.67,94,0,4.61,US,1666753090
Zambezi,-13.5432,23.1047,62.33,75,17,3.33,ZM,1666753091
Kosh-Agach,50.0,88.6667,26.73,34,100,1.74,RU,1666753091
Cubará,7.0008,-72.1085,72.23,96,100,2.8,CO,1666753091
Lichinga,-13.3128,35.2406,65.89,50,68,9.26,MZ,1666753092
Hualmay,-11.0964,-77.6139,61.25,87,22,10.02,PE,1666753092
Cidreira,-30.1811,-50.2056,65.35,85,2,22.62,BR,1666753093
Mount Gambier,-37.8333,140.7667,62.51,88,100,17.27,AU,1666752794
Airai,-8.9266,125.4092,76.62,50,100,1.7,TL,1666753093
Senanga,-16.1167,23.2667,72.16,53,91,3.15,ZM,1666753094
Little Current,45.9793,-81.9248,56.5,74,100,9.89,CA,1666753095
Nuoro,40.3211,9.3297,63.55,29,83,2.08,IT,1666752820
Grindavik,63.8424,-22.4338,46.35,87,100,19.57,IS,1666753096
Caravelas,-17.7125,-39.2481,70.86,92,0,2.64,BR,1666753096
Butterworth,5.3991,100.3638,86.0,83,20,4.61,MY,1666753096
Necochea,-38.5473,-58.7368,61.66,68,100,10.74,AR,1666753097
Suez,29.9737,32.5263,67.5,84,4,6.55,EG,1666753097
Hithadhoo,-0.6,73.0833,82.27,74,57,11.9,MV,1666753098
Machachi,-0.5,-78.5667,52.75,99,100,1.74,EC,1666753098
Ayna,-12.65,-73.9167,61.45,92,91,1.07,PE,1666753099
Guerrero Negro,27.9769,-114.0611,68.32,56,0,13.96,MX,1666753100
Pozo Colorado,-23.4923,-58.7972,78.66,47,0,9.33,PY,1666753100
Kalianget,-7.05,113.9333,84.33,69,93,5.64,ID,1666753101
Upata,8.0086,-62.3989,73.18,95,89,3.11,VE,1666753102
Khovd,48.0056,91.6419,29.61,41,100,1.83,MN,1666753102
Maketu,-37.7667,176.45,63.84,31,88,9.78,NZ,1666753103
Okhotsk,59.3833,143.3,27.84,53,31,8.84,RU,1666753104
Merauke,-8.4667,140.3333,86.52,62,58,8.88,ID,1666753104
Saint-Joseph,-21.3667,55.6167,70.18,64,10,9.95,RE,1666753105
Namatanai,-3.6667,152.4333,84.85,67,96,3.89,PG,1666753105
Buraidah,26.326,43.975,66.65,20,18,8.68,SA,1666753106
Grand Gaube,-20.0064,57.6608,74.37,71,28,7.0,MU,1666753106
Swan River,52.1058,-101.2676,31.89,80,100,6.91,CA,1666753107
Mweka,-4.85,21.5667,67.75,99,100,1.3,CD,1666753108
Buchanan,5.8808,-10.0467,77.18,89,34,4.38,LR,1666753108
Byron Bay,-28.65,153.6167,85.71,46,2,1.59,AU,1666753109
Ust'-Ishim,57.6935,71.1665,31.1,91,100,2.91,RU,1666753109
Faanui,-16.4833,-151.75,79.43,76,97,22.97,PF,1666753110
Barra de Tecoanapa,16.5167,-98.75,79.21,87,96,2.04,MX,1666753047
Juneau,58.3019,-134.4197,40.21,100,57,3.89,US,1666753081
Falam,22.9167,93.6833,69.08,60,19,0.89,MM,1666753111
Normandin,48.8333,-72.5321,62.91,94,100,3.44,CA,1666753111
Bambous Virieux,-20.3428,57.7575,74.21,83,75,9.22,MU,1666753112
Praia da Vitória,38.7333,-27.0667,59.76,88,20,13.38,PT,1666753112
Lima,-12.0432,-77.0282,60.91,83,75,12.66,PE,1666753011
La Unión,-5.4,-80.75,63.81,77,55,13.71,PE,1666753113
Acajutla,13.5928,-89.8275,79.45,85,41,3.94,SV,1666753114
Maun,-19.9833,23.4167,69.76,78,75,13.8,BW,1666753114
Somerset,40.5668,-74.5496,67.44,96,90,3.0,US,1666752939
Southbridge,42.0751,-72.0334,64.51,98,100,1.01,US,1666752971
Metro,-5.1131,105.3067,75.85,91,100,6.2,ID,1666753115
Tayga,56.06,85.6197,27.52,59,15,6.58,RU,1666753115
Mackay,-21.15,149.2,92.68,71,44,13.67,AU,1666753116
Jiuquan,39.7432,98.5174,48.31,30,0,4.88,CN,1666753116
Bennettsville,34.6174,-79.6848,62.1,91,0,0.0,US,1666753117
Fort Nelson,58.8053,-122.7002,22.59,94,100,4.61,CA,1666753118
Fochville,-26.4886,27.4939,64.06,31,66,3.47,ZA,1666753118
Henties Bay,-22.116,14.2845,56.84,97,48,2.39,NA,1666753119
Malinovoye Ozero,51.6753,79.7825,35.51,41,100,7.09,RU,1666753119
San Policarpo,12.1791,125.5072,82.78,85,100,14.97,PH,1666753120
Mount Isa,-20.7333,139.5,92.97,29,40,18.41,AU,1666752823
Shelbyville,35.4834,-86.4603,60.24,77,100,14.97,US,1666753002
Avera,33.194,-82.5271,67.37,50,100,9.17,US,1666753120
Baghdad,33.3406,44.4009,58.91,47,0,8.05,IQ,1666753121
Pampa,35.5362,-100.9599,51.19,62,0,6.91,US,1666753121
Ponta do Sol,32.6667,-17.1,73.0,90,65,7.49,PT,1666753121
Dolores,-36.3132,-57.6792,61.07,84,100,11.63,AR,1666753122
Kisaran,2.9845,99.6158,74.62,98,100,2.51,ID,1666753122
Winslow,35.0242,-110.6974,46.58,36,0,4.61,US,1666752919
Inta,66.0317,60.1659,22.62,95,93,12.97,RU,1666753123
Eisenerz,47.5333,14.8833,42.08,95,100,2.86,AT,1666753123
Tocopilla,-22.092,-70.1979,61.93,67,20,8.19,CL,1666753124
Nome,64.5011,-165.4064,29.16,77,100,13.94,US,1666753124
Saint-François,46.4154,3.9054,56.68,88,0,5.75,FR,1666753124
Qingquan,30.4511,115.2559,63.82,51,100,5.84,CN,1666753125
Rantepao,-2.9701,119.8978,83.03,62,67,2.3,ID,1666753125
Tevaitoa,-16.7833,-151.5,79.57,76,100,22.46,PF,1666753126
Sola,-13.8833,167.55,80.15,73,11,1.41,VU,1666752973
Talnakh,69.4865,88.3972,4.6,97,89,2.26,RU,1666753127
Lurgan,54.4608,-6.3294,59.23,86,100,15.57,GB,1666753127
Gorom-Gorom,14.4439,-0.2361,83.77,21,9,7.58,BF,1666753128
Ginir,7.1333,40.7,55.36,87,3,3.96,ET,1666753128
Callaway,30.153,-85.5699,75.94,93,37,7.0,US,1666753128
Vila Franca do Campo,37.7167,-25.4333,62.2,72,96,10.87,PT,1666753129
Rassvet,46.8333,40.75,46.9,68,41,8.19,RU,1666753129
Vuktyl,63.8567,57.3094,20.23,98,93,3.78,RU,1666753130
Mīnāb,27.1467,57.0801,68.32,83,0,0.0,IR,1666753130
Victor Harbor,-35.5667,138.6167,64.0,74,99,4.0,AU,1666753131
Sinazongwe,-17.2614,27.4618,80.02,47,53,3.4,ZM,1666753131
Emba,48.8264,58.1442,34.95,72,89,19.66,KZ,1666753132
Dhandhuka,22.3667,71.9833,80.19,47,1,4.27,IN,1666753132
Port Hedland,-20.3167,118.5667,93.25,12,0,18.41,AU,1666753133
Roman,46.9167,26.9167,59.07,80,95,6.71,RO,1666753133
Constitución,-35.3333,-72.4167,54.45,95,58,6.71,CL,1666753134
Moose Factory,51.2585,-80.6094,60.8,72,100,9.22,CA,1666753134
Mahina,-17.5065,-149.489,80.37,74,75,16.11,PF,1666753135
Vanimo,-2.6741,141.3028,86.59,63,45,7.43,PG,1666753135
Djambala,-2.5447,14.7533,66.34,97,85,0.96,CG,1666753136
Alyangula,-13.8483,136.4192,88.83,55,4,9.46,AU,1666753046
Pāli,25.7667,73.3333,77.25,33,0,7.65,IN,1666753136
Igrim,63.1906,64.4162,25.21,83,46,4.47,RU,1666753137
Isola del Liri,41.6862,13.5823,64.96,50,13,4.43,IT,1666753137
Dawei,14.0833,98.2,85.41,68,100,2.73,MM,1666753137
Tricase,39.9304,18.3553,65.61,68,6,13.09,IT,1666753138
Bathsheba,13.2167,-59.5167,83.01,83,40,18.41,BB,1666753138
Port Macquarie,-31.4333,152.9167,83.89,49,4,3.71,AU,1666752932
Pingliang,35.5392,106.6861,57.43,70,98,3.47,CN,1666753139
Ust'-Omchug,61.15,149.6333,16.32,80,31,4.36,RU,1666753139
Hanna,51.6334,-111.9018,29.86,85,30,7.0,CA,1666753140
Ilulissat,69.2167,-51.1,18.5,95,100,8.77,GL,1666753140
Manicoré,-5.8092,-61.3003,73.98,97,100,1.54,BR,1666753141
Shenjiamen,29.9576,122.298,67.3,76,100,10.89,CN,1666753141
Gizo Government Station,-8.103,156.8419,84.54,68,47,4.12,SB,1666753142
Kuzino,57.0224,59.4412,27.75,79,100,7.85,RU,1666753142
Catuday,16.2923,119.8062,81.86,71,100,4.99,PH,1666753143
Hūn,29.1268,15.9477,65.01,45,0,6.6,LY,1666753143
Marabá,-5.3686,-49.1178,75.38,100,75,4.61,BR,1666753144
Calatayud,41.3535,-1.6432,61.3,60,100,4.41,ES,1666753144
Sungai Raya,0.7,108.9,85.48,67,65,6.22,ID,1666753145
Cherskiy,68.75,161.3,5.25,92,100,4.79,RU,1666753146
Ambilobe,-13.2,49.05,70.79,68,0,4.23,MG,1666752861
Praia,14.9215,-23.5087,77.54,78,20,10.36,CV,1666753147
Ilebo,-4.3167,20.5833,68.97,99,66,0.25,CD,1666753148
Westerland,54.9079,8.3033,53.62,94,40,4.61,DE,1666753149
Samarai,-10.6167,150.6667,83.98,67,14,10.92,PG,1666753149
Nelson Bay,-32.7167,152.15,84.25,49,98,10.0,AU,1666753149
Chapais,49.7834,-74.8492,58.78,89,97,10.07,CA,1666753150
Poso,-1.3959,120.7524,86.45,61,97,2.21,ID,1666753150
Bonavista,48.6499,-53.1147,52.65,83,89,7.76,CA,1666753151
Kaina,12.6374,8.5873,75.34,29,32,7.56,NG,1666753151
Mehamn,71.0357,27.8492,33.75,86,100,12.66,NO,1666753152
Ekibastuz,51.6667,75.3667,38.82,22,100,7.92,KZ,1666753152
Kutum,14.2,24.6667,63.52,26,0,9.42,SD,1666753152
Ucluelet,48.9329,-125.5528,47.08,92,89,10.71,CA,1666753153
Jumla,29.2747,82.1838,56.35,32,0,1.7,NP,1666753153
Brabova,44.3667,23.4333,52.39,88,0,7.56,RO,1666753154
Zeya,53.75,127.2667,37.45,37,0,12.28,RU,1666753154
Fredericksburg,38.3032,-77.4605,60.12,92,100,1.01,US,1666752984
Phonhong,18.5007,102.4166,84.29,62,75,1.7,LA,1666753155
Aljezur,37.3191,-8.8033,67.12,94,100,6.58,PT,1666753155
La Reforma,18.1,-91.0167,74.43,96,15,6.62,MX,1666753156
Acarí,-15.4311,-74.6158,64.33,76,55,3.87,PE,1666753157
Le Port,-20.9373,55.2919,74.25,60,11,7.34,RE,1666753157
Comodoro Rivadavia,-45.8667,-67.5,53.46,62,0,3.44,AR,1666753032
Atar,20.5169,-13.0499,83.77,14,100,5.82,MR,1666753158
Los Llanos de Aridane,28.6585,-17.9182,64.15,67,0,7.0,ES,1666753159
Royan,45.6285,-1.0281,58.78,80,25,6.42,FR,1666753159
Eenhana,-17.4667,16.3333,70.95,63,90,4.74,NA,1666753160
Manokwari,-0.8667,134.0833,83.7,72,94,8.79,ID,1666753160
Lumeje,-11.55,20.7833,67.05,74,40,3.02,AO,1666753161
Cabo San Lucas,22.8909,-109.9124,77.18,70,3,5.84,MX,1666753130
Verkhnevilyuysk,63.4453,120.3167,27.16,88,98,8.1,RU,1666753162
Luz,-19.8014,-45.6856,72.28,59,37,7.0,BR,1666753162
Goderich,43.7501,-81.7165,64.72,52,100,11.5,CA,1666753162
North Platte,41.1239,-100.7654,46.38,47,4,8.01,US,1666753163
Trelew,-43.249,-65.3051,60.96,41,72,16.11,AR,1666753164
Hervey Bay,-25.2986,152.8535,86.02,71,0,11.99,AU,1666753164
Souillac,-20.5167,57.5167,71.98,83,75,9.22,MU,1666753164
Umluj,25.0213,37.2685,77.61,62,1,8.34,SA,1666753165
Maksatikha,57.797,35.8825,34.27,76,100,8.5,RU,1666752972
Saint-Leu,-21.15,55.2833,73.31,62,7,1.19,RE,1666753165
Biak,-0.9131,122.8766,85.8,63,98,3.56,ID,1666753166
Porto-Novo,6.4965,2.6036,75.02,85,100,3.78,BJ,1666753166
Banjar,-8.19,114.9675,87.42,63,81,4.94,ID,1666753167
Kargasok,59.0556,80.8572,32.02,89,100,10.2,RU,1666753168
Abadan,38.0507,58.2056,51.53,82,20,2.3,TM,1666753168
Egvekinot,66.3167,-179.1667,7.95,79,13,5.82,RU,1666753169
Vitez,44.1544,17.7903,53.15,91,45,1.3,BA,1666753169
Sault Ste. Marie,46.5168,-84.3333,46.96,100,100,13.8,CA,1666753170
Uíge,-7.6087,15.0613,66.15,99,95,1.86,AO,1666753170
Naviraí,-23.065,-54.1906,67.17,71,0,5.88,BR,1666753170
Camacha,33.0833,-16.3333,67.42,88,20,10.36,PT,1666753043
Mildura,-34.2,142.15,68.07,71,41,16.75,AU,1666752883
Bollnäs,61.3482,16.3946,43.29,96,100,3.29,SE,1666753171
Mahibadhoo,3.7833,72.9667,82.06,77,72,10.4,MV,1666753172
Derbent,42.0678,48.2899,55.87,72,99,4.07,RU,1666753172
Asunción,-25.3007,-57.6359,74.64,69,0,4.61,PY,1666752914
Farkhor,37.4922,69.4036,59.95,75,100,8.95,TJ,1666753173
Srednekolymsk,67.45,153.6833,14.92,95,100,10.09,RU,1666753173
Agüimes,27.9054,-15.4461,66.83,88,20,8.05,ES,1666753174
Amazar,53.858,120.875,32.79,51,8,2.84,RU,1666753174
Northam,51.0333,-4.2167,58.6,91,100,20.92,GB,1666753175
Ouésso,1.6136,16.0517,69.71,98,100,0.74,CG,1666753175
Syedove,47.0768,38.156,54.12,86,100,11.5,UA,1666753176
Kattivākkam,13.2167,80.3167,78.89,58,0,6.76,IN,1666753176
Adrar,20.5022,-10.0711,75.69,17,83,10.92,MR,1666753177
Alta Floresta,-9.8756,-56.0861,72.91,87,100,2.39,BR,1666753177
Harper,4.375,-7.7169,77.18,88,91,7.07,LR,1666753177
Ternate,0.8,127.4,85.62,68,97,8.08,ID,1666753178
Pochutla,15.7432,-96.4661,79.83,93,92,2.19,MX,1666753179
San Onofre,9.7359,-75.5263,77.23,90,100,1.16,CO,1666753179
Teya,60.3778,92.6267,29.84,72,100,13.76,RU,1666753180
Jämsä,61.8642,25.19,41.14,98,100,6.6,FI,1666753180
Talas,38.6908,35.5538,32.67,86,0,1.14,TR,1666753181
Santiago de Chuco,-8.15,-78.1833,53.35,58,99,2.15,PE,1666753181
Salihorsk,52.7876,27.5415,48.65,95,72,5.61,BY,1666753181
Dauriya,49.9333,116.8667,35.51,27,0,11.52,RU,1666753182
Muisne,0.6,-80.0333,74.46,83,100,7.36,EC,1666753182
Oktyabr'skoye,43.0645,44.7417,32.14,100,95,6.71,RU,1666753183
Grand Baie,-20.0182,57.5802,74.44,71,17,7.0,MU,1666753171
Waterloo,43.4668,-80.5164,55.56,93,75,3.44,CA,1666753002
Galle,6.0367,80.217,79.57,82,100,3.58,LK,1666752889
Göksun,38.021,36.4973,47.08,49,35,1.74,TR,1666753184
Khorixas,-20.3667,14.9667,69.4,39,94,2.42,NA,1666753184
Zaraza,9.3503,-65.3245,73.26,98,96,3.69,VE,1666753185
Codajás,-3.8367,-62.0569,76.24,93,100,1.41,BR,1666753185
Tepic,21.5,-104.9,65.89,97,53,1.14,MX,1666753186
Kandi,11.1342,2.9386,76.87,60,94,3.29,BJ,1666753186
Nantucket,41.2835,-70.0995,64.51,97,74,11.61,US,1666753187
Port Hardy,50.6996,-127.4199,42.98,100,75,3.44,CA,1666753187
San Joaquin,37.9333,-121.3011,63.32,55,20,4.79,US,1666753187
Kourou,5.1552,-52.6478,77.05,82,60,5.14,GF,1666753188
Marfino,55.7028,37.3822,32.34,80,0,11.18,RU,1666753188
Sarangani,5.4033,125.4636,84.4,77,60,17.4,PH,1666753189
Sai Buri,6.7013,101.6168,82.11,80,100,5.06,TH,1666753189
Napier City,-39.4833,176.9167,65.46,53,74,13.31,NZ,1666753189
Khani,41.9563,42.9566,42.37,68,21,6.44,GE,1666753191
Kiunga,-6.1219,141.2906,85.53,66,97,3.62,PG,1666753191
Luganville,-15.5333,167.1667,82.2,75,40,2.26,VU,1666753191
Geraldton,-28.7667,114.6,72.01,43,3,16.11,AU,1666753192
Mehrān,33.1222,46.1646,75.24,27,1,4.47,IR,1666753192
Tiznit Province,29.5833,-9.5,76.57,17,100,12.03,MA,1666753193
Kumul,42.8,93.45,55.49,27,100,2.64,CN,1666753193
Annau,37.8876,58.516,51.3,82,20,2.3,TM,1666753194
Deputatsky,69.3,139.9,12.9,86,98,19.53,RU,1666753194
Yumen,40.2833,97.2,48.56,29,0,12.28,CN,1666753195
Sibolga,1.7427,98.7792,82.62,74,96,1.61,ID,1666753195
Karaton,-6.3424,106.1045,74.82,92,100,4.12,ID,1666753196
Narasannapeta,18.4167,84.05,78.39,68,5,5.06,IN,1666753196
Ormara,25.2088,64.6357,80.56,64,0,0.85,PK,1666753197
Tefé,-3.3542,-64.7114,74.59,95,100,0.51,BR,1666753197
Rāzole,16.4833,81.8333,81.91,65,0,3.58,IN,1666753197
Puerto Quijarro,-17.7833,-57.7667,78.69,55,8,2.33,BO,1666753198
Mareeba,-17.0,145.4333,99.45,38,11,3.96,AU,1666753199
Barinas,8.6226,-70.2075,77.04,100,100,1.14,VE,1666753200
Formosa,-26.1775,-58.1781,73.08,69,0,7.23,AR,1666753201
Ilhabela,-23.7781,-45.3581,68.72,89,57,7.47,BR,1666753201
Sur,22.5667,59.5289,81.07,40,0,3.31,OM,1666753202
Berdigestyakh,62.0989,126.6992,27.66,93,99,7.83,RU,1666753202
Kurmanayevka,52.5093,52.0675,29.98,85,11,9.26,RU,1666753204
Ada,43.4166,-116.1262,44.87,69,90,7.61,US,1666753206
Changde,29.0464,111.6783,62.78,56,100,10.85,CN,1666753208
Yulara,-25.2406,130.9889,83.03,19,0,11.97,AU,1666753208
Tursunzoda,38.5144,68.2333,53.85,86,100,2.62,TJ,1666753209
Yantal',56.8471,105.2542,34.56,51,18,6.71,RU,1666753210
Saint-Augustin,51.226,-58.6502,50.95,93,99,8.5,CA,1666753210
Buckeye,33.3703,-112.5838,68.81,29,0,5.75,US,1666753065
Margate,51.3813,1.3862,61.9,86,87,5.99,GB,1666753211
Coihueco,-36.6167,-71.8333,52.54,87,20,5.75,CL,1666753016
Nieuwpoort,51.1244,2.7735,60.03,85,75,9.22,BE,1666753212
Simao,22.7886,100.9748,76.05,55,36,4.21,CN,1666753212
Muzhi,65.3667,64.6667,24.58,84,99,8.68,RU,1666753213
Oktyabr'skiy,54.4815,53.471,29.03,91,23,6.4,RU,1666753214
Nāthdwāra,24.9333,73.8167,63.59,31,0,3.42,IN,1666753215
Hamīrpur,25.95,80.15,75.58,42,0,3.6,IN,1666753103
Bloemfontein,-29.1211,26.214,60.22,67,100,7.43,ZA,1666753216
Yinzhu,35.8786,119.9753,63.01,58,100,10.87,CN,1666753216
Udachny,66.4167,112.4,25.45,79,86,9.35,RU,1666753217
Bulungu,-4.55,18.6,67.77,99,84,1.36,CD,1666753217
Tsumeb,-19.2333,17.7167,72.45,31,73,3.51,NA,1666753218
Amga,60.8953,131.9608,27.73,91,100,7.74,RU,1666753218
Korla,41.7597,86.1469,54.0,32,28,2.53,CN,1666753219
Vilyuysk,63.7553,121.6247,25.68,87,99,8.86,RU,1666753220
Esperantina,-3.9017,-42.2336,75.38,83,100,3.91,BR,1666753220
Inverness,57.4791,-4.224,55.31,85,75,5.75,GB,1666753089
Sayville,40.7359,-73.0821,66.38,96,93,1.01,US,1666753221
Stolin,51.8912,26.846,49.89,95,77,6.08,BY,1666753038
Riyadh,24.6877,46.7219,64.54,20,0,6.38,SA,1666753036
Tilichiki,60.4667,166.1,33.15,81,100,24.36,RU,1666753223
Coquimbo,-29.9533,-71.3436,56.28,80,0,5.06,CL,1666753223
Burnie,-41.0667,145.9167,59.47,84,99,1.83,AU,1666753224
Huilong,31.8111,121.655,69.93,71,100,13.33,CN,1666753225
Khingansk,49.1167,131.1833,33.58,68,100,3.33,RU,1666753225
Sakakah,29.9697,40.2064,65.59,39,62,16.24,SA,1666753226
Quixadá,-4.9714,-39.0153,76.15,77,72,6.64,BR,1666753226
Domoni,-12.2569,44.5319,75.09,83,40,10.47,KM,1666753227
Jogindarnagar,31.9833,76.7667,67.91,42,0,0.85,IN,1666753227
Touros,-5.1989,-35.4608,77.2,74,19,11.83,BR,1666753228
Hailar,49.2,119.7,35.6,56,21,13.11,CN,1666753229
Slidell,30.2752,-89.7812,69.01,70,0,4.0,US,1666753229
Alvin,29.4238,-95.2441,67.86,60,0,6.4,US,1666753230
Cuenca,-2.8833,-78.9833,55.53,100,100,0.0,EC,1666753230
Eureka,40.8021,-124.1637,51.93,93,18,1.01,US,1666752981
Leningradskiy,69.3833,178.4167,2.61,88,14,4.81,RU,1666752967
Togur,58.3631,82.8265,32.07,71,100,9.53,RU,1666753231
Hamilton,39.1834,-84.5333,62.78,92,100,1.99,US,1666753192
Storsteinnes,69.2408,19.2344,32.38,69,99,3.49,NO,1666753232
Iwanai,42.9744,140.5089,54.07,42,0,2.3,JP,1666753232
Paracuru,-3.41,-39.0306,80.11,76,96,10.29,BR,1666753233
Dunedin,-45.8742,170.5036,49.03,94,100,6.2,NZ,1666752962
Kununurra,-15.7667,128.7333,103.98,27,40,6.91,AU,1666753146
Ialibu,-6.2821,143.9935,66.83,85,82,2.35,PG,1666753234
Purpe,64.4803,76.6897,16.9,92,95,14.61,RU,1666753234
Taoudenni,22.6783,-3.9836,78.31,14,85,9.1,ML,1666753235
Gamboula,4.1178,15.1393,66.85,97,100,1.28,CF,1666753235
Shemgang,27.2169,90.6579,58.05,97,98,2.55,BT,1666753236
Buala,-8.145,159.5921,84.13,74,43,5.75,SB,1666753236
Yārāda,17.65,83.2667,80.92,83,20,2.3,IN,1666753237
Lashio,22.9333,97.75,73.04,92,74,1.86,MM,1666753238
Nichinan,31.6,131.3667,66.31,57,38,11.92,JP,1666753238
Port-Gentil,-0.7193,8.7815,78.87,84,100,7.43,GA,1666753239
Karlstad,59.3793,13.5036,45.16,89,100,5.75,SE,1666753239
Saskatoon,52.1168,-106.6345,28.18,90,98,6.11,CA,1666753240
Naze,28.3667,129.4833,76.12,59,97,17.54,JP,1666753053
Beyneu,45.3167,55.2,44.73,79,59,11.59,KZ,1666753240
Okakarara,-20.5833,17.4333,70.3,30,32,4.94,NA,1666753241
Wexford,52.3342,-6.4575,58.89,96,71,13.0,IE,1666753230
Zhigansk,66.7697,123.3711,8.47,94,23,7.52,RU,1666753242
Bundaberg,-24.85,152.35,88.21,66,4,4.0,AU,1666753243
Goulburn,-34.75,149.7167,60.84,87,89,16.67,AU,1666753243
Labuhan,-6.8844,112.2051,82.15,71,99,10.27,ID,1666753244
Oranjemund,-28.55,16.4333,56.12,93,27,8.9,NA,1666753244
Lufilufi,-13.8745,-171.5986,81.79,89,97,12.46,WS,1666753245
Cho Dok,10.7,105.1167,86.0,67,99,4.59,VN,1666753245
Chara,56.9064,118.2631,25.56,58,28,5.12,RU,1666753245
Cuamba,-14.8031,36.5372,72.34,45,32,5.12,MZ,1666753246
Ulladulla,-35.35,150.4667,75.96,52,21,4.97,AU,1666753246
Toamasina,-18.1667,49.3833,71.13,81,60,5.55,MG,1666753247
San Andrés,12.5847,-81.7006,83.03,74,100,9.75,CO,1666753247
Nampula,-15.1165,39.2666,66.56,77,79,5.61,MZ,1666753223
Gwadar,25.1216,62.3254,80.74,64,0,5.91,PK,1666753248
Staroaleyskoye,51.0061,82.0,35.89,35,41,5.7,RU,1666753248
Demyansk,57.643,32.466,42.84,90,100,9.17,RU,1666753249
Alekseyevka,50.6309,38.6903,49.48,94,100,10.2,RU,1666753250
Prince Rupert,54.3161,-130.3201,44.69,81,100,8.05,CA,1666753228
Jiwani,25.05,61.7417,82.0,61,0,6.55,PK,1666753250
Faya,18.3851,42.4509,59.94,72,1,2.73,SA,1666753251
Kirakira,-10.4544,161.9205,84.87,73,30,4.47,SB,1666753251
Guangyuan,32.442,105.823,61.66,83,100,2.46,CN,1666753252
Londonderry,54.9981,-7.3093,57.25,86,100,14.74,GB,1666753253
Geelong,-38.1471,144.3607,66.07,88,100,13.8,AU,1666752958
Kaabong,3.4836,34.1492,65.97,74,52,17.29,UG,1666753253
Mitsamiouli,-11.3847,43.2844,76.35,77,10,16.93,KM,1666753254
Barão de Melgaço,-16.1944,-55.9675,78.85,64,18,4.38,BR,1666753255
